,City,Cloudiness,Country,Date,Humidity,Lat,Lng,Max Temp,Wind Speed
0,Saint Paul Harbor,81,US,1635073931,91,57.79,-152.4072,43.12,14.12
1,Upernavik,100,GL,1635073933,73,72.7868,-56.1549,17.35,12.35
2,Tuktoyaktuk,69,CA,1635073935,95,69.4541,-133.0374,21.4,5.79
3,Jamestown,90,US,1635073936,99,42.097,-79.2353,45.99,1.01
4,Qaanaaq,0,GL,1635073938,59,77.484,-69.3632,-0.09,8.95
5,Wilmington,1,US,1635073861,94,34.2257,-77.9447,63.86,3.44
6,Tazovsky,99,RU,1635073942,96,67.4667,78.7,27.86,12.84
7,Tuatapere,90,NZ,1635073944,97,-46.1333,167.6833,52.03,1.81
8,Carnarvon,75,AU,1635073945,78,-24.8667,113.6333,71.67,18.41
9,Bredasdorp,67,ZA,1635073947,39,-34.5322,20.0403,68.29,7.07
10,Tasiilaq,100,GL,1635073949,93,65.6145,-37.6368,32.16,21.03
11,Fortuna,90,US,1635073951,72,40.5982,-124.1573,59.34,7.0
12,Albany,6,US,1635073667,91,42.6001,-73.9662,39.54,3.56
13,Ushuaia,75,AR,1635073949,87,-54.8,-68.3,35.26,14.97
14,Nabire,100,ID,1635073784,88,-3.3667,135.4833,77.07,2.93
15,Butaritari,94,KI,1635073958,70,3.0707,172.7902,80.76,2.01
16,Sulina,4,RO,1635073960,41,45.1559,29.6536,55.35,17.96
17,Rikitea,86,PF,1635073962,73,-23.1203,-134.9692,74.52,17.27
18,Fairbanks,90,US,1635073894,88,64.8378,-147.7164,31.82,3.44
19,Katsuura,100,JP,1635073965,61,35.1333,140.3,60.91,7.7
20,Clyde River,68,CA,1635073967,79,70.4692,-68.5914,14.58,9.33
21,Saskylakh,92,RU,1635073969,98,71.9167,114.0833,-2.42,6.62
22,Mar del Plata,0,AR,1635073780,56,-38.0023,-57.5575,52.88,8.01
23,Vaini,20,TO,1635073973,83,-21.2,-175.2,69.96,5.75
24,Yuzhno-Sukhokumsk,100,RU,1635073975,50,44.6581,45.6436,66.25,8.16
25,San Juan Bautista,17,PE,1635073977,69,-14.0108,-75.7358,51.17,2.44
26,Silver City,1,US,1635073978,57,32.7701,-108.2803,52.63,4.0
27,Vao,50,NC,1635073980,75,-22.6667,167.4833,70.92,14.41
28,Kruisfontein,85,ZA,1635073982,42,-34.0033,24.7314,63.07,8.43
29,Kapaa,75,US,1635073984,84,22.0752,-159.319,75.52,16.11
30,Rock Springs,90,US,1635073986,81,41.5875,-109.2029,36.05,5.23
31,Gemena,29,CD,1635073988,43,3.25,19.7667,94.03,0.22
32,Touros,61,BR,1635073989,68,-5.1989,-35.4608,85.1,13.38
33,Kuytun,74,RU,1635073991,69,54.3419,101.5036,36.7,5.88
34,Mahajanga,20,MG,1635073994,52,-15.7167,46.3167,91.42,17.27
35,Bluff,100,NZ,1635073995,94,-46.6,168.3333,52.07,4.03
36,Punta Arenas,90,CL,1635073997,87,-53.15,-70.9167,37.51,17.27
37,Banda Aceh,100,ID,1635073999,78,5.5577,95.3222,81.14,5.41
38,Hermanus,30,ZA,1635074001,54,-34.4187,19.2345,71.91,10.31
39,Sitka,20,US,1635074003,66,57.0531,-135.33,46.29,10.36
40,Burnie,15,AU,1635074005,65,-41.0667,145.9167,47.95,9.17
41,Fare,100,PF,1635074007,88,-16.7,-151.0167,76.32,10.2
42,Hong Kong,7,HK,1635073869,67,22.2855,114.1577,74.32,5.99
43,Mataura,99,NZ,1635074010,90,-46.1927,168.8643,51.8,0.54
44,Roald,75,NO,1635074012,66,62.5833,6.1333,55.09,12.66
45,Hobart,75,AU,1635073967,83,-42.8794,147.3294,48.06,14.97
46,Ponta do Sol,25,PT,1635074016,46,32.6667,-17.1,75.13,4.92
47,Taksimo,26,RU,1635074018,78,56.3444,114.8794,31.15,2.48
48,Hilo,75,US,1635073947,80,19.7297,-155.09,72.28,6.91
49,Nikolskoye,70,RU,1635074022,63,59.7035,30.7861,36.88,7.2
50,Port Elizabeth,80,ZA,1635073851,49,-33.918,25.5701,65.07,10.45
51,Xuanzhou,99,CN,1635074026,73,30.9525,118.7553,62.31,2.44
52,Vardø,82,NO,1635074027,59,70.3705,31.1107,32.2,21.97
53,Campos Altos,42,BR,1635074029,64,-19.6961,-46.1714,74.26,11.79
54,Klaksvík,91,FO,1635074031,93,62.2266,-6.589,50.92,20.87
55,Puerto Ayora,98,EC,1635074033,90,-0.7393,-90.3518,69.03,7.65
56,Pascagoula,1,US,1635074035,100,30.3658,-88.5561,69.85,0.0
57,Barrow,90,US,1635073802,86,71.2906,-156.7887,28.42,9.22
58,Contamana,34,PE,1635074038,86,-7.3333,-75.0167,74.03,3.11
59,Somerset,1,US,1635074041,94,40.5668,-74.5496,48.88,1.01
60,Berbera,3,SO,1635074042,49,10.4396,45.0143,88.39,14.9
61,Thompson,90,CA,1635074044,93,55.7435,-97.8558,28.56,2.3
62,Chokurdakh,62,RU,1635074046,100,70.6333,147.9167,-17.05,3.78
63,Alyangula,78,AU,1635074048,79,-13.8483,136.4192,81.73,10.65
64,Kudahuvadhoo,84,MV,1635074050,73,2.6708,72.8944,82.98,13.76
65,Flinders,32,AU,1635074052,79,-34.5833,150.8552,61.81,6.33
66,Luanda,75,AO,1635074054,78,-8.8368,13.2343,78.8,8.05
67,Porto-Novo,97,BJ,1635074056,68,6.4965,2.6036,84.18,5.14
68,Bandarbeyla,11,SO,1635074058,62,9.4942,50.8122,81.9,11.03
69,Port Alfred,92,ZA,1635074060,62,-33.5906,26.891,63.57,10.83
70,Cape Town,0,ZA,1635073883,35,-33.9258,18.4232,72.12,4.0
71,Asău,57,RO,1635074063,41,46.4333,26.4,52.39,4.65
72,Dunedin,74,NZ,1635074065,91,-45.8742,170.5036,56.8,5.01
73,Oxelösund,0,SE,1635074067,71,58.6706,17.1015,50.52,11.5
74,Aswān,0,EG,1635074020,18,24.0934,32.907,89.56,10.11
75,Alofi,90,NU,1635074070,68,-19.0595,-169.9187,73.94,17.74
76,Atuona,14,PF,1635074013,71,-9.8,-139.0333,77.79,17.29
77,Nhulunbuy,45,AU,1635074074,74,-12.2333,136.7667,83.01,8.05
78,Maricá,84,BR,1635074076,74,-22.9194,-42.8186,83.86,8.61
79,Beyneu,15,KZ,1635074078,22,45.3167,55.2,65.77,9.73
80,Bilibino,97,RU,1635074080,100,68.0546,166.4372,-9.74,2.48
81,La Romana,20,DO,1635074082,94,18.4273,-68.9728,80.33,0.0
82,Dikson,100,RU,1635074084,86,73.5069,80.5464,7.16,18.1
83,Mahébourg,75,MU,1635074086,69,-20.4081,57.7,80.26,14.97
84,Marsh Harbour,57,BS,1635074087,76,26.5412,-77.0636,80.1,9.31
85,Yellowknife,100,CA,1635074089,88,62.456,-114.3525,41.56,15.99
86,Vrangel',0,RU,1635074091,63,42.7297,133.0839,51.21,7.02
87,Constitución,0,CL,1635074093,76,-35.3333,-72.4167,50.63,5.91
88,Vila do Maio,36,CV,1635074095,72,15.1333,-23.2167,79.2,17.13
89,Nanfeng,3,CN,1635074097,69,23.7434,111.7959,66.56,1.54
90,San Patricio,0,US,1635074098,93,28.017,-97.5169,78.64,6.33
91,Tamworth,98,GB,1635074100,81,52.634,-1.6959,56.62,8.99
92,Ilulissat,75,GL,1635074102,63,69.2167,-51.1,21.22,16.11
93,Morón,0,AR,1635074056,62,-34.6534,-58.6198,60.03,7.0
94,Tyumentsevo,84,RU,1635074106,62,53.3224,81.498,51.26,16.78
95,Saint-Augustin,100,CA,1635074109,90,51.226,-58.6502,43.27,8.3
96,Waterloo,90,CA,1635074111,99,43.4668,-80.5164,37.47,1.01
97,Lüderitz,0,NA,1635074113,45,-26.6481,15.1594,74.03,22.15
98,Rawson,19,AR,1635074114,35,-43.3002,-65.1023,53.89,15.66
99,Muroto-misakicho,94,JP,1635074116,62,33.2833,134.15,63.84,9.24
100,Yala,100,TH,1635074118,92,6.3333,101.25,77.65,2.17
101,Mirandopólis,100,BR,1635074120,95,-21.1336,-51.1017,65.68,7.56
102,Garden City,1,US,1635074122,87,42.3256,-83.331,37.4,0.0
103,Port Hardy,75,CA,1635074124,87,50.6996,-127.4199,48.2,3.44
104,Tandil,0,AR,1635074126,65,-37.3217,-59.1332,47.57,12.39
105,Zhaotong,100,CN,1635074128,95,27.3167,103.7167,47.89,4.07
106,Busselton,100,AU,1635074130,85,-33.65,115.3333,64.09,9.8
107,Santa Fe,0,AR,1635074132,61,-31.6333,-60.7,63.91,1.99
108,Ribeira Grande,20,PT,1635074134,60,38.5167,-28.7,68.4,9.22
109,Iqaluit,90,CA,1635074136,86,63.7506,-68.5145,29.93,8.99
110,Dingle,100,PH,1635074138,87,10.9995,122.6711,78.04,0.22
111,Polson,67,US,1635074140,98,47.6936,-114.1632,42.76,1.14
112,Bethel,1,US,1635074142,91,41.3712,-73.414,44.56,3.44
113,Beringovskiy,5,RU,1635074143,83,63.05,179.3167,9.14,7.54
114,Whitianga,100,NZ,1635074145,96,-36.8333,175.7,59.02,13.22
115,Zhangye,13,CN,1635074147,33,38.9342,100.4517,49.62,7.0
116,Auki,76,SB,1635074149,86,-8.7676,160.7034,78.73,2.21
117,Mitú,70,CO,1635074151,97,1.1983,-70.1733,71.94,1.86
118,Murgab,0,TM,1635074153,31,37.4966,61.9714,73.27,9.22
119,Borger,66,NL,1635074154,69,52.9233,6.7931,54.97,11.68
120,Udachny,100,RU,1635074156,91,66.4167,112.4,22.55,6.69
121,Poum,60,NC,1635074158,77,-20.2333,164.0167,74.28,11.48
122,Souillac,75,MU,1635074160,69,-20.5167,57.5167,80.37,14.97
123,Shimoda,98,JP,1635074162,66,34.6667,138.95,61.38,6.15
124,Nanortalik,24,GL,1635074164,70,60.1432,-45.2371,35.17,17.78
125,Yulara,79,AU,1635074165,35,-25.2406,130.9889,73.24,14.97
126,Saint-Philippe,14,RE,1635074167,68,-21.3585,55.7679,81.95,9.66
127,Cap-aux-Meules,90,CA,1635074169,100,47.3821,-61.8597,53.65,14.97
128,East London,20,ZA,1635074171,68,-33.0153,27.9116,65.34,11.5
129,Codrington,74,AU,1635074173,58,-38.2667,141.9667,51.13,12.73
130,Inuvik,90,CA,1635074175,100,68.3499,-133.7218,23.86,4.61
131,Cidreira,98,BR,1635074177,82,-30.1811,-50.2056,61.97,14.07
132,Ahvāz,0,IR,1635074179,17,31.3203,48.6693,93.15,4.61
133,Bambous Virieux,75,MU,1635074180,69,-20.3428,57.7575,80.22,14.97
134,Belmonte,34,BR,1635074182,83,-15.8631,-38.8828,79.3,2.73
135,Dillon,0,US,1635074184,65,34.4166,-79.3712,52.86,5.08
136,Shelburne,22,CA,1635074117,97,44.0787,-80.2041,37.29,5.99
137,Faanui,100,PF,1635074187,95,-16.4833,-151.75,74.97,12.82
138,Polunochnoye,100,RU,1635074189,93,60.8697,60.4153,34.09,3.0
139,Lebu,47,CL,1635074191,87,-37.6167,-73.65,50.38,4.54
140,Berdigestyakh,100,RU,1635074193,89,62.0989,126.6992,31.32,6.69
141,Provideniya,93,RU,1635074195,81,64.3833,-173.3,21.65,8.48
142,Flin Flon,90,CA,1635074116,81,54.7682,-101.865,37.24,10.36
143,Araouane,34,ML,1635074199,16,18.9048,-3.5265,96.91,15.52
144,Khatanga,63,RU,1635074201,91,71.9667,102.5,1.49,15.39
145,Chapais,94,CA,1635074202,85,49.7834,-74.8492,28.18,3.06
146,Ancud,100,CL,1635074202,95,-41.8697,-73.8203,51.42,13.87
147,Ganta,74,LR,1635074206,60,7.3022,-8.5308,85.39,1.77
148,Naze,100,JP,1635074208,62,28.3667,129.4833,71.02,18.95
149,Carutapera,11,BR,1635074210,71,-1.195,-46.02,83.93,8.99
150,Thessalon,100,CA,1635074212,83,46.2501,-83.5666,39.69,10.29
151,Boyolangu,92,ID,1635074213,80,-8.1181,111.8935,78.15,6.71
152,Taoudenni,0,ML,1635074215,14,22.6783,-3.9836,93.99,8.5
153,High Rock,88,BS,1635074217,78,26.6208,-78.2833,75.22,13.22
154,Pedernales,24,DO,1635074219,65,18.0384,-71.744,79.68,3.69
155,Tigil',100,RU,1635074221,97,57.8,158.6667,26.76,3.33
156,Ahipara,11,NZ,1635074223,96,-35.1667,173.1667,57.33,2.1
157,Kaitangata,96,NZ,1635074225,97,-46.2817,169.8464,50.54,2.28
158,Northam,91,GB,1635074227,94,51.0333,-4.2167,57.42,16.06
159,Todos Santos,21,MX,1635074229,82,23.45,-110.2167,75.0,5.53
160,Aden,27,YE,1635074214,61,12.7794,45.0367,85.23,11.32
161,Kununurra,73,AU,1635074233,61,-15.7667,128.7333,84.18,9.22
162,Micheweni,64,TZ,1635074234,60,-4.9667,39.8333,84.38,3.31
163,Langsa,94,ID,1635074236,88,4.4683,97.9683,78.93,2.55
164,Chitipa,81,MW,1635074238,21,-9.7024,33.2697,92.79,8.81
165,Praia,20,CV,1635074240,61,14.9215,-23.5087,82.94,21.85
166,Marystown,100,CA,1635074242,100,47.1666,-55.1483,58.86,12.26
167,Paka,40,MY,1635074244,89,4.6374,103.4368,82.33,0.0
168,Kavieng,100,PG,1635074245,77,-2.5744,150.7967,82.42,9.51
169,At-Bashi,0,KG,1635074247,38,41.1702,75.8106,41.11,3.47
170,Chuguyevka,0,RU,1635074249,63,44.1653,133.8633,40.46,3.51
171,Christchurch,31,NZ,1635073981,80,-43.5333,172.6333,60.48,1.01
172,São Filipe,13,CV,1635074252,64,14.8961,-24.4956,80.73,8.12
173,Homer,1,US,1635074254,87,59.6425,-151.5483,43.03,0.0
174,Novikovo,74,RU,1635074256,51,51.1537,37.8879,48.09,14.52
175,Laas,0,IT,1635074258,30,46.6166,10.7002,57.94,4.63
176,Kumul,100,CN,1635074260,37,42.8,93.45,52.36,4.65
177,New Norfolk,96,AU,1635074262,68,-42.7826,147.0587,47.7,3.0
178,Richards Bay,100,ZA,1635074264,68,-28.783,32.0377,65.75,11.16
179,Narsaq,26,GL,1635074266,50,60.9167,-46.05,32.22,4.38
180,Gangānagar,27,IN,1635074268,46,29.9167,73.8833,81.68,3.71
181,Tiksi,100,RU,1635074270,94,71.6872,128.8694,4.8,9.17
182,Margate,42,GB,1635074204,64,51.3813,1.3862,58.17,4.0
183,Namatanai,57,PG,1635074274,80,-3.6667,152.4333,80.51,6.87
184,Puri,5,IN,1635074276,59,19.8,85.85,88.32,4.34
185,Kysyl-Syr,100,RU,1635074278,86,63.8986,122.7617,31.05,7.99
186,Thunder Bay,57,CA,1635074028,84,48.4001,-89.3168,33.98,5.79
187,Muzhi,14,RU,1635074281,74,65.3667,64.6667,28.11,15.9
188,Aksu,1,CN,1635074283,23,41.1231,80.2644,59.23,3.4
189,Castro,100,BR,1635074286,98,-24.7911,-50.0119,60.04,7.36
190,Torbay,75,CA,1635074288,98,47.6666,-52.7314,60.76,10.36
191,Kropotkin,100,RU,1635074290,94,45.4375,40.5756,53.04,8.86
192,Longyearbyen,0,SJ,1635074292,79,78.2186,15.6401,17.44,6.91
193,Perth,75,AU,1635074101,79,-31.9333,115.8333,66.2,14.97
194,Rio Grande,8,BR,1635074020,77,-32.035,-52.0986,58.95,14.81
195,Gallup,1,US,1635074297,62,35.5281,-108.7426,48.96,4.61
196,Pathein,100,MM,1635074298,88,16.7833,94.7333,78.39,4.43
197,Cap Malheureux,40,MU,1635074300,64,-19.9842,57.6142,80.47,11.01
198,George Town,40,MY,1635074194,78,5.4112,100.3354,84.88,5.75
199,Bath,85,GB,1635074200,88,51.3779,-2.3591,58.71,15.1
200,Amuntai,77,ID,1635074305,80,-2.4177,115.2494,79.9,0.94
201,Ocós,99,GT,1635074307,86,14.5094,-92.1933,81.32,7.63
202,Henties Bay,64,NA,1635074309,73,-22.116,14.2845,60.85,11.61
203,Leningradskiy,100,RU,1635074311,95,69.3833,178.4167,9.9,7.58
204,Hithadhoo,33,MV,1635074314,73,-0.6,73.0833,82.83,13.69
205,Kommunar,84,RU,1635074315,62,59.6206,30.39,36.93,8.63
206,Airai,80,TL,1635074317,87,-8.9266,125.4092,65.17,2.08
207,Bom Jardim,98,BR,1635074319,62,-7.7958,-35.5872,79.14,9.57
208,Khorixas,54,NA,1635074321,7,-20.3667,14.9667,89.22,12.15
209,Assiniboia,100,CA,1635074323,87,49.6334,-105.9845,37.31,10.36
210,Pevek,100,RU,1635074325,93,69.7008,170.3133,8.42,2.57
211,Hay River,75,CA,1635074236,87,60.8156,-115.7999,39.18,8.05
212,Laguna,90,US,1635074328,93,38.421,-121.4238,59.02,5.01
213,Zavyalovo,85,RU,1635074330,72,54.5053,82.4484,51.26,16.71
214,Lucapa,44,AO,1635074332,37,-8.4192,20.7447,91.83,3.49
215,Livingstonia,59,MW,1635074333,33,-10.606,34.1063,83.97,6.93
216,Praia da Vitória,40,PT,1635074335,77,38.7333,-27.0667,70.75,11.05
217,Saint-Joseph,14,RE,1635074337,73,-21.3667,55.6167,80.96,3.98
218,Labuan,20,MY,1635074339,83,5.2767,115.2417,84.11,1.14
219,Tarija,99,BO,1635074341,82,-21.5355,-64.7296,53.55,3.31
220,Talnakh,100,RU,1635074343,89,69.4865,88.3972,21.34,5.1
221,Saldanha,0,ZA,1635074345,60,-33.0117,17.9442,62.67,18.12
222,Kutum,2,SD,1635074347,16,14.2,24.6667,88.23,15.46
223,Davila,57,PH,1635074349,82,18.4726,120.5763,84.18,14.88
224,Atar,0,MR,1635074351,12,20.5169,-13.0499,93.83,9.62
225,Pitimbu,94,BR,1635074352,68,-7.4706,-34.8086,82.99,14.09
226,Anadyr,75,RU,1635074355,84,64.75,177.4833,-1.7,6.71
227,Escanaba,1,US,1635074184,97,45.7453,-87.0646,41.31,4.61
228,Atasū,3,KZ,1635074358,33,48.6814,71.6433,53.35,7.36
229,Shingū,99,JP,1635074360,83,33.7333,135.9833,58.68,6.58
230,Talara,100,PE,1635074362,81,-4.5772,-81.2719,66.61,11.18
231,Emirdağ,3,TR,1635074363,37,39.0197,31.15,63.39,12.75
232,Chara,21,RU,1635074365,66,56.9064,118.2631,30.4,1.81
233,Eyl,5,SO,1635074368,57,7.9803,49.8164,85.1,14.85
234,Sittwe,91,MM,1635074369,72,20.15,92.9,80.65,8.68
235,Shellbrook,100,CA,1635074371,72,53.2168,-106.4011,34.83,13.8
236,Razdol'noye,0,RU,1635074373,59,43.55,131.9167,37.81,3.0
237,Marsabit,32,KE,1635074375,35,2.3284,37.9899,82.42,16.91
238,West Hartford,1,US,1635074297,94,41.762,-72.742,42.87,1.01
239,Zarumilla,100,PE,1635074378,85,-3.5031,-80.2731,71.33,2.44
240,Shahr-e Kord,40,IR,1635074380,15,32.3256,50.8644,64.17,23.02
241,Troitskoye,100,RU,1635074382,56,52.9821,84.6757,45.91,17.67
242,Baley,11,RU,1635074384,83,51.6,116.6333,27.84,4.83
243,Rosário do Sul,7,BR,1635074386,82,-30.2583,-54.9142,57.76,8.93
244,Sambava,37,MG,1635074388,84,-14.2667,50.1667,79.3,8.57
245,Adrar,0,MR,1635074390,11,20.5022,-10.0711,90.93,9.75
246,Loksa,99,EE,1635074392,61,59.5764,25.7214,41.94,5.82
247,Avarua,20,CK,1635074394,68,-21.2078,-159.775,69.85,4.61
248,Vestmannaeyjar,75,IS,1635074396,93,63.4427,-20.2734,47.39,16.11
249,Bǝrdǝ,0,AZ,1635074397,28,40.3744,47.1267,72.68,3.6
250,Petropavlovsk-Kamchatskiy,40,RU,1635074399,69,53.0452,158.6483,30.79,8.95
251,Lakes Entrance,8,AU,1635074401,63,-37.8811,147.981,50.16,15.21
252,Aklavik,94,CA,1635074403,95,68.2191,-135.0107,23.83,2.91
253,Samarai,26,PG,1635074406,85,-10.6167,150.6667,80.92,11.56
254,Kresttsy,99,RU,1635074408,74,58.2452,32.5165,36.43,9.55
255,Guerrero Negro,1,MX,1635074410,76,27.9769,-114.0611,63.54,11.36
256,Lagoa,42,PT,1635074412,61,39.05,-27.9833,66.06,10.38
257,Bose,99,IT,1635074414,77,45.4612,8.0137,60.94,2.75
258,Ambilobe,26,MG,1635074416,31,-13.2,49.05,98.73,11.32
259,Marsá Maţrūḩ,1,EG,1635074418,58,31.3525,27.2453,75.0,9.28
260,Chui,2,UY,1635074419,76,-33.6971,-53.4616,55.13,10.98
261,Zeya,18,RU,1635074421,87,53.75,127.2667,36.46,2.73
262,Umluj,0,SA,1635074423,58,25.0213,37.2685,82.87,12.41
263,Rio Branco,0,BR,1635074425,88,-9.9747,-67.81,77.61,3.44
264,Vanimo,94,PG,1635074427,85,-2.6741,141.3028,79.41,5.93
265,Okhotsk,87,RU,1635074429,72,59.3833,143.3,19.22,5.28
266,Acarí,57,PE,1635074431,74,-15.4311,-74.6158,62.56,4.38
267,Iranshahr,0,IR,1635074432,12,27.2025,60.6848,89.94,9.22
268,Arraial do Cabo,40,BR,1635074434,73,-22.9661,-42.0278,78.76,10.36
269,São João da Barra,10,BR,1635074392,81,-21.6403,-41.0511,77.09,14.58
270,Bengkulu,85,ID,1635074268,83,-3.8004,102.2655,78.71,0.83
271,Kahului,1,US,1635074439,76,20.8947,-156.47,77.85,17.27
272,Keti Bandar,0,PK,1635074441,44,24.1447,67.4497,84.11,13.09
273,Empalme,0,MX,1635074443,81,27.9667,-110.8167,68.92,5.26
274,Belyy Yar,0,RU,1635074445,50,53.6039,91.3903,49.89,17.9
275,San Juan de los Morros,74,VE,1635074447,90,9.9115,-67.3538,73.42,3.02
276,Hasaki,87,JP,1635074449,47,35.7333,140.8333,50.4,6.11
277,Padang,95,ID,1635074450,90,-0.9492,100.3543,78.85,3.49
278,Aktobe,0,KZ,1635074452,31,50.2797,57.2072,60.89,17.9
279,Makkah al Mukarramah,3,SA,1635074385,22,21.4267,39.8261,97.54,12.5
280,Mlonggo,48,ID,1635074456,73,-6.5333,110.7,85.89,7.54
281,Hobyo,14,SO,1635074457,67,5.3505,48.5268,83.16,13.2
282,Yaransk,100,RU,1635074459,95,57.3033,47.8861,37.96,12.1
283,Qūchān,21,IR,1635074461,14,37.106,58.5095,65.89,7.36
284,Lompoc,75,US,1635074464,92,34.6391,-120.4579,57.13,0.0
285,Severnyy,75,RU,1635074465,57,50.677,36.5532,44.64,15.66
286,Kiryat Gat,0,IL,1635074467,35,31.61,34.7642,81.39,11.52
287,Srednekolymsk,78,RU,1635074469,96,67.45,153.6833,-10.17,3.15
288,Grindavik,75,IS,1635074471,87,63.8424,-22.4338,46.35,9.22
289,Harnai,0,PK,1635074473,23,30.1005,67.9374,75.51,8.43
290,Imbituba,100,BR,1635074475,90,-28.24,-48.6703,67.82,17.2
291,Riviere-au-Renard,100,CA,1635074477,91,48.9957,-64.3971,46.4,17.96
292,Lorengau,95,PG,1635074479,77,-2.0226,147.2712,82.27,7.61
293,Valparaíso,0,CL,1635074402,62,-33.0393,-71.6273,56.48,0.0
294,Iskateley,64,RU,1635074482,86,67.6803,53.1512,26.64,7.07
295,Geraldton,90,AU,1635074484,77,-28.7667,114.6,67.12,17.27
296,Terenos,75,BR,1635074486,94,-20.4422,-54.8603,67.71,17.27
297,Cumbitara,100,CO,1635074488,96,1.6517,-77.5823,56.91,1.5
298,Hauterive,0,FR,1635074490,46,46.0901,3.4459,62.1,4.63
299,Waipawa,99,NZ,1635074492,91,-41.4122,175.5153,57.45,5.01
300,Jalu,58,LY,1635074494,20,29.0331,21.5482,86.88,10.0
301,Vila Franca do Campo,36,PT,1635074496,62,37.7167,-25.4333,68.41,6.04
302,Inta,94,RU,1635074498,96,66.0317,60.1659,26.51,12.62
303,Toktogul,0,KG,1635074500,38,41.8708,72.9402,56.57,0.56
304,Nouadhibou,0,MR,1635074502,57,20.931,-17.0347,75.18,17.27
305,Panabá,79,MX,1635074503,96,21.2833,-88.2667,74.07,5.46
306,Cockburn Town,82,TC,1635074505,70,21.4612,-71.1419,82.72,19.44
307,Mount Gambier,33,AU,1635074507,77,-37.8333,140.7667,44.1,6.22
308,Cherskiy,91,RU,1635074509,100,68.75,161.3,-9.9,6.02
309,Orlik,50,RU,1635074511,77,52.5178,99.825,30.16,5.14
310,Warrnambool,89,AU,1635074513,60,-38.3833,142.4833,50.81,12.3
311,Norman Wells,40,CA,1635074514,86,65.282,-126.8329,17.64,2.3
312,Hambantota,60,LK,1635074516,67,6.1241,81.1185,84.72,21.65
313,Esperance,73,AU,1635074518,42,-33.8667,121.9,71.02,13.27
314,Staryy Nadym,69,RU,1635074520,78,65.6118,72.6842,27.95,22.37
315,Atambua,77,ID,1635074522,76,-9.1061,124.8925,78.75,0.18
316,Yamada,5,JP,1635074524,79,39.4667,141.95,50.45,6.24
317,Husavik,100,IS,1635074526,96,66.0449,-17.3389,30.11,3.33
318,Shizunai-furukawachō,2,JP,1635074528,76,42.3339,142.3669,53.44,9.75
319,Matara,59,LK,1635074530,70,5.9485,80.5353,82.87,12.39
320,Nizwá,3,OM,1635074532,24,22.9333,57.5333,92.28,13.29
321,São Francisco de Assis,18,BR,1635074534,86,-29.5503,-55.1311,58.39,6.13
322,Alexandria,40,EG,1635074261,53,31.2156,29.9553,78.76,10.36
323,Leh,100,IN,1635074537,75,34.1667,77.5833,35.46,4.97
324,Port Lincoln,2,AU,1635074539,73,-34.7333,135.8667,55.36,13.51
325,Severo-Kuril'sk,100,RU,1635074541,75,50.6789,156.125,37.99,9.24
326,Terråk,100,NO,1635074543,93,65.087,12.3715,48.07,9.46
327,Iberia,1,US,1635074471,94,29.9502,-91.7507,73.47,5.75
328,Merke,0,KZ,1635074546,42,42.8728,73.1786,57.6,6.24
329,Sisimiut,51,GL,1635074549,84,66.9395,-53.6735,18.82,8.34
330,Brae,100,GB,1635074551,93,60.3964,-1.353,53.51,16.22
331,Korla,9,CN,1635074552,28,41.7597,86.1469,57.29,5.46
332,Askiz,100,RU,1635074554,81,53.1319,90.5264,44.85,14.58
333,Ulaangom,61,MN,1635074556,60,49.9811,92.0667,38.48,3.58
334,Santa Isabel,100,BR,1635074558,96,-23.3156,-46.2214,69.1,3.98
335,Fuerte Olimpo,96,PY,1635074560,91,-21.0415,-57.8738,67.64,10.76
336,Kavaratti,90,IN,1635074562,71,10.5669,72.642,82.08,2.75
337,Abu Samrah,0,SY,1635074563,25,35.3029,37.1841,77.25,6.69
338,Sorong,81,ID,1635074565,79,-0.8833,131.25,81.18,7.14
339,Abalak,71,RU,1635074567,81,58.1286,68.5944,43.18,5.68
340,Kidal,18,ML,1635074569,21,18.4411,1.4078,96.93,4.54
341,Mizdah,41,LY,1635074571,31,31.4451,12.9801,81.1,14.76
342,Herat Province,0,AF,1635074573,15,34.5,62.0,65.53,3.24
343,Kansk,100,RU,1635074506,80,56.2017,95.7175,42.89,23.31
344,Nombre de Dios,10,MX,1635074576,76,23.85,-104.2333,55.35,2.46
345,Kapit,100,MY,1635074578,98,2.0167,112.9333,75.36,1.16
346,Sola,25,VU,1635074580,78,-13.8833,167.55,80.98,15.9
347,Rødbyhavn,100,DK,1635074581,68,54.6544,11.352,53.15,17.9
348,Nome,90,US,1635074584,80,64.5011,-165.4064,24.87,4.61
349,Tura,6,IN,1635074585,87,25.5198,90.2201,73.4,1.86
350,Maţāy,0,EG,1635074587,26,28.419,30.7792,81.34,15.08
351,Kanniyākumāri,77,IN,1635074589,76,8.0833,77.5667,82.51,17.31
352,Bangassou,7,CF,1635074591,42,4.7413,22.8184,93.4,3.2
353,Kalmunai,97,LK,1635074593,72,7.4167,81.8167,82.98,8.23
354,Akureyri,90,IS,1635074594,100,65.6835,-18.0878,30.13,0.0
355,Cabo San Lucas,5,MX,1635074596,76,22.8909,-109.9124,75.51,7.0
356,Rock Sound,86,BS,1635074598,74,24.9,-76.2,80.94,7.9
357,Beloha,0,MG,1635074600,28,-25.1667,45.05,90.46,14.36
358,Santo Amaro,69,BR,1635074602,79,-12.5467,-38.7119,78.84,6.24
359,Worpswede,86,DE,1635074604,74,53.2167,8.9333,52.92,3.0
360,Kattivākkam,100,IN,1635074605,68,13.2167,80.3167,84.29,11.97
361,Whitley Bay,20,GB,1635074607,78,55.0397,-1.4471,55.31,16.11
362,Vila Velha,0,BR,1635074609,65,-20.3297,-40.2925,80.55,9.22
363,Malsch,0,DE,1635074612,69,48.8833,8.3333,57.79,0.69
364,Rockingham,2,US,1635074613,80,42.9668,-71.0995,41.76,8.72
365,Ben Gardane,0,TN,1635074615,55,33.1378,11.2197,79.0,18.39
366,Steinbach am Taunus,0,DE,1635074617,64,50.1667,8.5667,56.03,8.05
367,Raja,52,SS,1635074619,38,8.4596,25.678,95.14,3.27
368,Arak,65,IR,1635074621,19,34.0917,49.6892,63.79,11.88
369,Cértegui,92,CO,1635074623,98,5.3707,-76.6044,69.91,0.29
370,Skovorodino,34,RU,1635074625,86,53.9833,123.9167,33.51,2.53
371,Pundaguitan,64,PH,1635074627,74,6.3711,126.1689,84.34,10.83
372,Erenhot,93,CN,1635074629,24,43.6475,111.9767,50.0,7.54
373,Port Hedland,2,AU,1635074361,54,-20.3167,118.5667,80.65,6.91
374,Saint George,1,US,1635074449,53,37.1041,-113.5841,62.35,1.99
375,Gamba,100,GA,1635074634,74,-2.65,10.0,81.0,3.53
376,Ghanzi,2,BW,1635074635,11,-21.5667,21.7833,89.29,5.68
377,Tsarítsani,99,GR,1635074637,68,39.8833,22.2333,64.2,5.46
378,Barra de Tecoanapa,91,MX,1635074639,87,16.5167,-98.75,73.56,8.37
379,Yaan,96,NG,1635074641,71,7.3833,8.5667,79.48,4.36
380,Dzaoudzi,0,YT,1635074643,66,-12.7887,45.2699,87.69,13.8
381,Macieira de Cambra,0,PT,1635074645,41,40.8594,-8.3734,61.27,3.36
382,Saint Anthony,1,US,1635074647,77,45.0205,-93.218,40.19,1.01
383,Comodoro Rivadavia,20,AR,1635074605,40,-45.8667,-67.5,53.46,17.27
384,Cravo Norte,69,CO,1635074650,86,6.3017,-70.2041,74.84,6.89
385,Eucaliptus,0,BO,1635074652,20,-17.5833,-67.5167,47.71,5.53
386,Bilma,2,NE,1635074654,10,18.6853,12.9164,95.99,6.02
387,Bereda,49,ES,1635074656,76,43.2686,-7.5406,62.42,2.39
388,Hualmay,30,PE,1635074657,87,-11.0964,-77.6139,61.03,8.12
389,Birao,50,CF,1635074659,32,10.2849,22.7882,96.28,4.43
390,Surgut,40,RU,1635074661,80,61.25,73.4167,33.98,17.9
391,Ossora,100,RU,1635074663,90,59.2353,163.0719,33.33,16.53
392,Ugoofaaru,91,MV,1635074665,71,5.6667,73.0,82.47,12.71
393,Mahina,90,PF,1635074667,94,-17.5065,-149.489,74.97,2.3
394,Uspenka,90,UA,1635074668,42,48.3903,39.1619,51.24,10.58
395,Esim,94,GH,1635074671,75,4.8699,-2.2405,82.27,5.5
396,Guider,6,CM,1635074673,23,9.9342,13.9486,97.68,4.18
397,Kadipaten,100,ID,1635074675,82,-8.1357,113.2158,78.28,4.16
398,Kaoma,57,ZM,1635074677,29,-14.7833,24.8,89.24,2.59
399,Chaoyang,1,CN,1635074679,48,41.5703,120.4586,53.24,4.81
400,Alice Springs,100,AU,1635074681,28,-23.7,133.8833,72.95,12.66
401,Malye Derbety,100,RU,1635074682,37,47.9547,44.6808,58.75,11.54
402,Inza,36,RU,1635074685,59,53.8533,46.3586,44.56,12.24
403,Suixi,9,CN,1635074687,58,33.8907,116.7747,58.53,5.46
404,Alikalia,45,SL,1635074688,81,9.1667,-11.4,80.01,0.87
405,Camocim,93,BR,1635074690,69,-2.9022,-40.8411,81.79,12.44
406,Brønnøysund,75,NO,1635074692,81,65.4625,12.1997,48.2,23.02
407,Örnsköldsvik,90,SE,1635074694,100,63.2909,18.7153,34.75,4.61
408,Champerico,94,GT,1635074696,87,14.3,-91.9167,81.36,6.89
409,Half Moon Bay,90,US,1635074698,94,37.4636,-122.4286,61.92,7.0
410,Dwārka,0,IN,1635074699,58,22.2394,68.9678,83.23,12.28
411,Deputatsky,100,RU,1635074701,97,69.3,139.9,-0.17,2.24
412,Kapuskasing,90,CA,1635074703,100,49.4169,-82.4331,30.29,1.14
413,Salalah,0,OM,1635074705,65,17.0151,54.0924,84.29,14.97
414,Mehamn,83,NO,1635074707,67,71.0357,27.8492,35.42,12.17
415,Altamira,75,BR,1635074709,100,-3.2033,-52.2064,77.09,0.0
416,Oxapampa,22,PE,1635074711,93,-10.5775,-75.4017,56.3,4.43
417,Carauari,74,BR,1635074713,98,-4.8828,-66.8958,74.46,1.36
418,Bathsheba,75,BB,1635074715,69,13.2167,-59.5167,83.01,20.71
419,Hamilton,90,US,1635074717,96,39.1834,-84.5333,55.89,3.0
420,Nong Chik,100,TH,1635074719,79,6.8436,101.178,81.34,5.44
421,Takhtamygda,25,RU,1635074721,87,54.1,123.5667,32.92,1.77
422,Nortelândia,95,BR,1635074723,82,-14.4547,-56.8028,77.22,2.46
423,Gilbués,71,BR,1635074725,70,-9.8317,-45.3439,76.41,3.36
424,Bontang,73,ID,1635074727,83,0.1333,117.5,81.54,8.97
425,Batemans Bay,78,AU,1635074729,69,-35.7167,150.1833,56.91,7.31
426,Moreira Sales,100,BR,1635074572,93,-24.0622,-53.0069,65.17,9.78
427,Quatre Cocos,30,MU,1635074733,70,-20.2078,57.7625,79.09,13.87
428,Aksarka,15,RU,1635074734,78,66.5606,67.7975,26.44,19.33
429,Chumikan,85,RU,1635074736,79,54.7183,135.315,39.25,13.27
430,Port Pirie,0,AU,1635074738,67,-33.1833,138.0167,60.89,12.66
431,Kargopol',99,RU,1635074740,73,61.5071,38.9456,34.54,8.75
432,Kalamazoo,1,US,1635074448,86,42.2506,-85.55,39.33,0.0
433,Camargo,0,MX,1635074743,40,27.6667,-105.1667,62.06,3.85
434,São Miguel do Araguaia,92,BR,1635074745,63,-13.275,-50.1628,81.88,7.65
435,Kilis,0,TR,1635074747,21,36.7161,37.115,77.23,8.9
436,Broome,90,US,1635074749,76,42.2506,-75.833,43.84,4.61
437,Selfoss,100,IS,1635074751,80,63.9331,-20.9971,47.28,9.22
438,Elk City,1,US,1635074753,77,35.412,-99.4043,68.68,11.5
439,Carupano,20,VE,1635074754,88,10.6678,-63.2585,77.05,6.62
440,Tambacounda,0,SN,1635074756,58,13.7539,-13.7586,91.45,2.3
441,Alugan,100,PH,1635074758,89,12.2188,125.4808,78.21,5.73
442,Palana,95,RU,1635074760,82,59.1167,159.9667,20.03,5.3
443,Mossamedes,20,AO,1635074762,68,-15.1961,12.1522,74.03,10.36
444,Dawei,90,MM,1635074764,82,14.0833,98.2,79.84,4.94
445,Krutinka,100,RU,1635074766,64,56.0055,71.5113,49.84,9.93
446,Guiyang,20,CN,1635074474,63,26.5833,106.7167,61.29,8.95
447,Menongue,42,AO,1635074769,19,-14.6585,17.691,97.14,2.48
448,Diré,39,ML,1635074471,62,12.2833,-10.9667,87.51,1.74
449,Arlit,4,NE,1635074773,7,18.7369,7.3853,99.25,6.69
450,Verkhnevilyuysk,100,RU,1635074774,87,63.4453,120.3167,31.62,9.15
451,Bonavista,100,CA,1635074776,100,48.6499,-53.1147,59.11,11.14
452,Kyzyl-Suu,2,KG,1635074778,62,42.3414,78.0056,39.47,1.19
453,Trelew,29,AR,1635074780,30,-43.249,-65.3051,54.57,15.66
454,Kenai,90,US,1635074782,86,60.5544,-151.2583,40.14,0.0
455,São Caetano de Odivelas,78,BR,1635074784,80,-0.75,-48.02,81.43,7.05
456,Baruun-Urt,95,MN,1635074785,33,46.6806,113.2792,42.28,6.67
457,Krylovskaya,100,RU,1635074787,57,46.3194,39.9711,58.66,9.93
458,Aykhal,97,RU,1635074789,98,66.0,111.5,18.77,6.82
459,Freeport,1,US,1635074528,84,40.6576,-73.5832,51.76,0.0
460,Berlevåg,99,NO,1635074793,63,70.8578,29.0864,36.84,17.2
461,Savannah Bight,61,HN,1635074794,76,16.45,-85.85,82.0,18.28
462,Bo Rai,93,TH,1635074796,87,12.5728,102.5371,85.86,6.91
463,Hofn,76,IS,1635074798,77,64.2539,-15.2082,44.38,11.14
464,Mollendo,79,PE,1635074800,89,-17.0231,-72.0147,59.22,10.42
465,Arnót,3,HU,1635074802,43,48.1306,20.8583,53.1,3.2
466,Bulungu,94,CD,1635074803,53,-4.55,18.6,87.21,6.15
467,Santa Elena,90,EC,1635074805,94,-2.2333,-80.85,71.15,12.66
468,Matadi,100,CD,1635074807,61,-5.8167,13.45,87.12,2.13
469,San Roque,40,ES,1635074809,77,36.2107,-5.3842,72.41,12.66
470,Port Keats,81,AU,1635074811,72,-14.25,129.55,83.23,9.66
471,Port Shepstone,100,ZA,1635074813,84,-30.7414,30.455,60.93,11.95
472,Beira,0,MZ,1635074814,67,-19.8436,34.8389,84.45,17.02
473,Huarmey,22,PE,1635074816,89,-10.0681,-78.1522,61.83,7.16
474,Kashgar,0,CN,1635074818,23,39.4547,75.9797,58.21,6.71
475,Caravelas,27,BR,1635074820,71,-17.7125,-39.2481,81.19,6.42
476,Alta Floresta,89,BR,1635074822,72,-9.8756,-56.0861,78.17,3.27
477,Mackay,100,AU,1635074823,83,-21.15,149.2,78.04,6.91
478,San Cristobal,83,VE,1635074825,95,7.7669,-72.225,66.38,1.34
479,Mana,86,GF,1635074827,89,5.6592,-53.7767,79.09,9.01
480,Solnechnyy,6,RU,1635074829,86,50.7214,136.6319,35.46,5.03
481,Sabang,100,ID,1635074831,74,5.8933,95.3214,82.04,7.56
482,Ubari,8,LY,1635074833,9,26.5921,12.7805,96.98,21.92
483,Narasannapeta,9,IN,1635074834,70,18.4167,84.05,80.29,6.26
484,Pak Phanang,100,TH,1635074836,74,8.3511,100.202,84.22,7.58
485,Emerald,46,AU,1635074839,45,-23.5333,148.1667,78.94,5.75
486,Acaponeta,72,MX,1635074840,88,22.4964,-105.3594,73.4,3.69
487,Yar-Sale,75,RU,1635074842,77,66.8333,70.8333,28.2,23.02
488,Aykino,100,RU,1635074844,69,62.2248,49.9922,33.6,5.82
489,Río Cuarto,0,AR,1635074846,41,-33.1307,-64.3499,58.84,11.5
490,Macheng,0,CN,1635074848,58,31.1783,115.0319,59.68,5.12
491,Vallenar,0,CL,1635074849,50,-28.5708,-70.7581,61.84,1.28
492,Hayden,90,US,1635074851,94,47.766,-116.7866,44.83,8.05
493,Antalaha,53,MG,1635074853,88,-14.9003,50.2788,78.22,7.07
494,Mahon,20,ES,1635074855,77,39.8885,4.2658,68.56,9.22
495,Ürümqi,0,CN,1635074857,46,43.801,87.6005,43.75,4.47
496,Sørland,100,NO,1635074859,80,67.667,12.6934,37.47,20.92
497,Te Anau,96,NZ,1635074860,98,-45.4167,167.7167,51.31,0.29
498,Tabuk,100,PH,1635074862,93,17.4189,121.4443,74.61,3.98
499,Ust-Kuyga,100,RU,1635074864,97,70.0167,135.6,5.32,2.24
500,Changji,0,CN,1635074866,46,44.0167,87.3167,47.19,4.47
501,Rundu,32,NA,1635074868,13,-17.9333,19.7667,102.76,0.85
502,Ixtapa,100,MX,1635074870,90,20.7,-105.2,79.23,1.23
503,Maragogi,50,BR,1635074607,78,-9.0122,-35.2225,79.79,15.01
504,Kolokani,99,ML,1635074873,67,13.5728,-8.0339,78.94,3.18
505,Khandyga,100,RU,1635074875,97,62.6667,135.6,24.94,4.52
506,Golden,1,US,1635074857,50,39.7555,-105.2211,50.67,1.01
507,Vostok,0,RU,1635074881,75,46.4856,135.8833,34.16,5.55
508,Nemuro,2,JP,1635074882,76,43.3236,145.575,51.24,7.36
509,Tahoua,0,NE,1635074884,36,14.8888,5.2692,93.18,2.3
510,Humaitá,49,BR,1635074886,77,-7.5061,-63.0208,79.05,3.87
511,Tlalnepantla,75,MX,1635074888,68,19.5269,-99.2217,60.62,5.75
512,Tilichiki,77,RU,1635074890,93,60.4667,166.1,7.29,9.48
513,Bukama,100,CD,1635074892,47,-9.2,25.85,89.17,4.16
514,Shenzhen,7,CN,1635074893,74,22.5455,114.0683,73.35,9.17
515,Kwale,80,NG,1635074895,59,5.7063,6.4374,88.34,2.51
516,Necochea,2,AR,1635074897,61,-38.5473,-58.7368,51.04,12.88
517,Hulan Ergi,7,CN,1635074899,35,47.2042,123.6333,48.4,5.7
518,Stykkisholmur,98,IS,1635074901,92,65.0757,-22.7297,40.51,9.82
519,Estevan,90,CA,1635074903,100,49.1334,-102.9842,35.94,11.5
520,Dinguiraye,58,GN,1635074905,67,11.3,-10.7167,82.22,3.51
521,Tharād,0,IN,1635074907,40,24.3961,71.6267,86.36,9.53
522,Carballo,81,ES,1635074909,92,43.213,-8.691,58.77,6.02
523,Cabatuan,99,PH,1635074910,88,10.8794,122.486,77.61,1.52
524,Zaysan,7,KZ,1635074912,33,47.4667,84.8667,42.89,4.0
525,Pangai,93,TO,1635074914,68,-19.8,-174.35,75.0,17.29
526,San Quintín,33,MX,1635074916,84,30.4833,-115.95,60.44,9.73
527,Benjamin Constant,29,BR,1635074918,91,-4.3831,-70.0311,71.73,1.83
528,Sawtell,90,AU,1635074920,80,-30.3833,153.1,68.32,5.75
529,Zaranj,0,AF,1635074840,11,30.9667,61.8833,80.56,6.35
530,Manokwari,74,ID,1635074923,79,-0.8667,134.0833,80.02,0.58
531,Avera,65,US,1635074925,76,33.194,-82.5271,53.71,5.35
532,Havre-St-Pierre,90,CA,1635074927,100,50.2334,-63.5986,46.4,2.3
533,Daultala,89,PK,1635074650,57,33.1925,73.1413,67.86,8.48
534,Bunia,50,CD,1635074930,49,1.5667,30.25,80.96,9.48
535,Log,91,RU,1635074932,36,49.4844,43.8613,52.86,11.03
536,Itupiranga,42,BR,1635074934,88,-5.1347,-49.3267,82.72,2.01
537,Tema,20,GH,1635074936,78,5.667,-0.0166,82.81,4.61
538,João Pinheiro,70,BR,1635074938,72,-17.7425,-46.1725,74.14,6.87
539,St. George's,20,GD,1635074940,83,12.0564,-61.7485,80.28,8.05
540,São José do Belmonte,60,BR,1635074942,63,-7.8614,-38.7597,80.44,8.63
541,Guarujá,75,BR,1635074928,57,-23.9931,-46.2564,76.6,4.0
542,Ambon City,40,ID,1635074946,65,-3.6954,128.1814,78.94,6.91
543,Heihe,0,CN,1635074948,59,50.2441,127.4902,45.18,6.76
544,Ndola,41,ZM,1635074950,17,-12.9587,28.6366,94.73,4.72
545,Catuday,100,PH,1635074952,76,16.2923,119.8062,79.79,13.27
546,Lázaro Cárdenas,100,MX,1635074954,89,17.9583,-102.2,75.67,5.93
